City_ID,City,Lat,Lng,Max Temp,Humidity,Cloudiness,Wind Speed,Country,Date
0,huicungo,-7.2833,-76.8,20.12,99,100,0.51,PE,1683973768
1,thompson,55.7435,-97.8558,-1.91,93,40,0.0,CA,1683973769
2,nagqu,31.5,92.0,2.02,36,100,5.48,CN,1683973770
3,touros,-5.1989,-35.4608,26.38,79,92,2.07,BR,1683973772
4,puerto natales,-51.7236,-72.4875,2.47,92,100,1.17,CL,1683973773
5,blackmans bay,-43.0167,147.3167,8.62,86,16,0.88,AU,1683973774
6,constantia,44.1833,28.65,19.38,49,99,3.02,RO,1683973775
7,iskateley,67.6803,53.1512,0.18,88,99,6.38,RU,1683973776
8,edinburgh of the seven seas,-37.0676,-12.3116,18.35,94,100,11.67,SH,1683973778
9,boa vista,2.8197,-60.6733,22.99,100,75,4.12,BR,1683973780
10,adamstown,-25.066,-130.1015,22.45,61,98,7.46,PN,1683973781
11,port elizabeth,-33.918,25.5701,15.17,92,100,5.14,ZA,1683973782
12,waitangi,-43.9535,-176.5597,11.47,61,82,6.28,NZ,1683973783
13,ushuaia,-54.8,-68.3,1.81,69,0,1.03,AR,1683973784
14,hawaiian paradise park,19.5933,-154.9731,21.73,87,100,2.06,US,1683973785
15,grytviken,-54.2811,-36.5092,-0.59,83,100,4.3,GS,1683973786
16,tiksi,71.6872,128.8694,-10.36,86,79,2.39,RU,1683973787
17,pontianak,-0.0333,109.3333,29.99,79,40,4.12,ID,1683973789
18,jamestown,42.097,-79.2353,12.77,88,100,1.22,US,1683973650
19,punta arenas,-53.15,-70.9167,3.06,81,75,4.63,CL,1683973758
20,labytnangi,66.6572,66.4183,0.99,100,97,3.46,RU,1683973792
21,hobyo,5.3505,48.5268,30.64,66,10,10.1,SO,1683973793
22,namie,37.4833,141.0,15.95,79,99,6.13,JP,1683973794
23,sungai penuh,-2.0833,101.3833,23.19,90,80,0.54,ID,1683973795
24,uglich,57.5275,38.3317,19.12,46,81,4.96,RU,1683973798
25,sydney,-33.8679,151.2073,16.61,85,40,3.6,AU,1683973217
26,afaahiti,-17.75,-149.2833,23.93,80,58,6.05,PF,1683973800
27,port-aux-francais,-49.35,70.2167,3.99,65,85,6.06,TF,1683973801
28,zaozersk,69.4005,32.4476,6.32,95,100,5.15,RU,1683973803
29,stanley,54.868,-1.6985,11.4,77,26,1.9,GB,1683973804
30,mugia,43.1041,-9.2179,17.87,73,25,8.01,ES,1683973807
31,san patricio,28.017,-97.5169,27.92,87,100,6.68,US,1683973808
32,badger,64.8,-147.5333,7.95,65,0,2.57,US,1683973809
33,chernomorskoye,45.5039,32.6997,15.09,63,42,6.18,UA,1683973811
34,bilibino,68.0546,166.4372,-14.44,91,81,3.74,RU,1683973812
35,yellowknife,62.456,-114.3525,8.09,70,75,3.58,CA,1683973593
36,eutingen an der enz,48.9167,8.75,16.39,68,96,3.46,DE,1683973816
37,whitehorse,60.7161,-135.0538,6.43,64,40,5.14,CA,1683973817
38,papatowai,-46.5619,169.4708,10.64,76,99,2.25,NZ,1683973818
39,chonchi,-42.6128,-73.8092,13.4,93,100,2.91,CL,1683973819
40,bredasdorp,-34.5322,20.0403,16.57,48,65,7.66,ZA,1683973820
41,invercargill,-46.4,168.35,8.34,95,68,1.34,NZ,1683973822
42,fort bragg,35.139,-79.006,17.68,91,0,1.54,US,1683973567
43,porangatu,-13.4408,-49.1486,23.37,63,78,1.29,BR,1683973824
44,bethel,41.3712,-73.414,18.97,73,100,0.0,US,1683973726
45,avarua,-21.2078,-159.775,26.03,83,100,7.72,CK,1683973826
46,albany,42.6001,-73.9662,16.55,65,100,2.12,US,1683973827
47,picota,-6.9197,-76.3304,21.15,100,100,0.31,PE,1683973829
48,margaret river,-33.95,115.0667,14.57,72,74,4.07,AU,1683973830
49,howrah,22.5892,88.3103,33.0,58,75,2.06,IN,1683973831
50,minas de marcona,-15.2119,-75.1103,14.45,83,1,1.53,PE,1683973832
51,sisimiut,66.9395,-53.6735,-2.4,68,98,3.69,GL,1683973833
52,codrington,-38.2667,141.9667,9.19,90,2,3.15,AU,1683973835
53,tazacorte,28.629,-17.9293,21.54,70,75,7.2,ES,1683973836
54,thinadhoo,0.5333,72.9333,28.52,78,88,6.79,MV,1683973837
55,vorgashor,67.5833,63.95,0.28,99,100,5.48,RU,1683973803
56,turtas,58.9417,69.1325,14.3,25,66,3.14,RU,1683973839
57,west island,-12.1568,96.8225,25.99,94,75,5.66,CC,1683973840
58,praia da vitoria,38.7333,-27.0667,20.42,82,40,3.96,PT,1683973841
59,port alfred,-33.5906,26.891,15.66,95,100,5.39,ZA,1683973741
60,tucupita,9.0622,-62.051,24.19,88,55,2.0,VE,1683973844
61,chita,52.0333,113.55,10.94,37,40,5.0,RU,1683973845
62,prado,-17.3411,-39.2208,22.26,93,96,2.14,BR,1683973764
63,chui,-33.6971,-53.4616,11.39,85,100,2.89,UY,1683973848
64,iqaluit,63.7506,-68.5145,-8.15,86,75,10.29,CA,1683973849
65,pacov,49.4708,15.0017,12.63,82,100,6.2,CZ,1683973851
66,gusinoozyorsk,51.2833,106.5,9.17,45,58,2.66,RU,1683973852
67,puerto ayora,-0.7393,-90.3518,25.31,98,53,4.02,EC,1683973853
68,tamanrasset,22.785,5.5228,29.95,13,8,7.2,DZ,1683973678
69,santa ana,33.7456,-117.8678,16.25,87,100,1.54,US,1683973796
70,podgornoye,51.735,39.1496,21.12,28,40,4.0,RU,1683973857
71,wynyard,-41.0,145.7167,7.21,80,8,2.37,AU,1683973858
72,khandyga,62.6667,135.6,1.41,89,100,2.48,RU,1683973859
73,kitaibaraki,36.7833,140.75,14.58,97,100,3.88,JP,1683973583
74,ribeira grande,38.5167,-28.7,19.32,77,75,1.54,PT,1683973861
75,touba,8.2833,-7.6833,32.73,45,98,2.35,CI,1683973863
76,midvagur,62.0511,-7.1939,9.46,100,100,5.14,FO,1683973864
77,kourou,5.1552,-52.6478,24.03,83,99,2.45,GF,1683973865
78,chibougamau,49.9168,-74.3659,-0.21,80,100,6.17,CA,1683973662
79,qingyuan,23.7,113.0333,24.99,84,100,0.69,CN,1683973867
80,ola,59.5833,151.2833,-0.2,89,98,2.01,RU,1683973869
81,qaqortoq,60.7167,-46.0333,0.37,87,98,1.89,GL,1683973870
82,callao,-12.0667,-77.15,22.62,78,100,4.63,PE,1683973871
83,shingu,33.7333,135.9833,15.2,97,100,0.39,JP,1683973872
84,puerto deseado,-47.7503,-65.8938,7.98,77,92,8.43,AR,1683973874
85,rexburg,43.826,-111.7897,7.99,60,0,3.09,US,1683973714
86,ancud,-41.8697,-73.8203,12.96,95,100,6.35,CL,1683973876
87,maneromango,-7.1988,38.7848,26.46,69,68,2.38,TZ,1683973878
88,hermanus,-34.4187,19.2345,16.0,52,48,8.6,ZA,1683973879
89,lihue,21.9789,-159.3672,20.77,85,100,2.57,US,1683973880
90,bubaque,11.2833,-15.8333,25.86,74,100,2.86,GW,1683973881
91,severnoye,56.3491,78.3619,11.36,20,48,3.84,RU,1683973883
92,kerikeri,-35.2268,173.9474,13.28,94,16,1.72,NZ,1683973884
93,selibaby,15.159,-12.1829,36.92,19,42,6.09,MR,1683973885
94,kupang,-10.1667,123.5833,25.32,73,20,4.12,ID,1683973886
95,yeraliyev,43.2,51.65,21.16,38,91,3.61,KZ,1683973887
96,shimoda,34.6667,138.95,15.61,76,100,4.95,JP,1683973889
97,san jose,37.3394,-121.895,14.22,89,0,0.0,US,1683973800
98,port mathurin,-19.6833,63.4167,25.91,73,13,7.34,MU,1683973891
99,norilsk,69.3535,88.2027,-9.21,82,98,4.51,RU,1683973892
100,wailua homesteads,22.0669,-159.378,20.44,84,100,2.57,US,1683973893
101,kununurra,-15.7667,128.7333,21.99,49,16,1.03,AU,1683973895
102,maitum,6.0392,124.4986,28.07,78,56,0.19,PH,1683973896
103,sitka,57.0531,-135.33,8.94,87,100,2.06,US,1683973890
104,madimba,-10.4,40.3333,26.62,89,75,5.14,TZ,1683973898
105,shevchenko,48.5,35.0,19.79,37,89,3.86,UA,1683973899
106,aldinga beach,-35.2793,138.4604,18.15,61,17,4.24,AU,1683973900
107,fada,9.5667,8.3,37.37,19,68,1.65,NG,1683973902
108,victoria,22.2855,114.1577,24.41,94,100,4.02,HK,1683973873
109,sao vicente,-23.9631,-46.3919,19.1,26,75,0.45,BR,1683973904
110,jashpurnagar,22.9,84.15,36.79,10,98,5.27,IN,1683973905
111,nemuro,43.3236,145.575,6.24,84,3,5.28,JP,1683973906
112,aasiaat,68.7098,-52.8699,-3.59,82,99,2.89,GL,1683973908
113,happy valley-goose bay,53.3168,-60.3315,7.17,53,100,6.17,CA,1683973909
114,dolny kubin,49.2098,19.3034,15.28,57,100,0.95,SK,1683973910
115,la'ie,21.6477,-157.9253,23.98,83,31,2.71,US,1683973911
116,fale old settlement,-9.3852,-171.2468,28.54,79,21,6.45,TK,1683973913
117,nuku'alofa,-21.1333,-175.2,25.02,78,100,11.73,TO,1683973914
118,tolanaro,-25.0319,46.9987,27.04,69,20,4.12,MG,1683973917
119,greenwood,34.1668,-82.1165,19.79,59,75,1.54,US,1683973918
120,isola di capo rizzuto,38.96,17.0933,16.41,88,75,3.09,IT,1683973919
121,cascais,38.6979,-9.4215,22.51,53,0,5.81,PT,1683973920
122,castillos,-34.1667,-53.8333,11.27,85,100,3.45,UY,1683973921
123,thisted,56.9552,8.6949,21.22,57,3,0.57,DK,1683973922
124,anadyr,64.75,177.4833,0.28,86,100,4.0,RU,1683973924
125,olonkinbyen,70.9221,-8.7187,1.15,92,51,7.78,SJ,1683973925
126,luderitz,-26.6481,15.1594,21.36,40,65,12.12,NA,1683973926
127,carahue,-38.7,-73.1667,12.51,97,100,0.08,CL,1683973928
128,ammon,43.4696,-111.9666,8.28,70,0,5.66,US,1683973929
129,eirunepe,-6.6603,-69.8736,21.54,99,82,0.95,BR,1683973715
130,new norfolk,-42.7826,147.0587,9.28,69,24,0.93,AU,1683973931
131,lebu,-37.6167,-73.65,12.95,95,100,3.56,CL,1683973933
132,selfoss,63.9331,-20.9971,7.8,72,100,5.85,IS,1683973934
133,pacific grove,36.6177,-121.9166,12.03,94,100,1.34,US,1683973935
134,egilsstadir,65.2653,-14.3948,9.95,57,0,2.06,IS,1683973936
135,hastings,50.8552,0.5729,17.1,30,9,6.84,GB,1683973938
136,hamilton,39.1834,-84.5333,20.05,95,100,2.57,US,1683973831
137,port macquarie,-31.4333,152.9167,13.83,82,1,0.36,AU,1683973941
138,arraial do cabo,-22.9661,-42.0278,18.92,94,75,2.06,BR,1683973942
139,mahina,-17.5065,-149.489,24.87,83,0,1.54,PF,1683973944
140,saudarkrokur,65.7461,-19.6394,8.54,53,93,5.02,IS,1683973945
141,rincon,32.296,-81.2354,22.14,83,20,0.0,US,1683973946
142,lunino,53.5918,45.2271,19.27,48,31,3.56,RU,1683973947
143,tsiombe,-25.3,45.4833,29.74,42,1,2.67,MG,1683973948
144,jaru,-10.4389,-62.4664,20.65,94,81,1.66,BR,1683973950
145,tofol,5.3248,163.0078,28.39,79,75,4.73,FM,1683973951
146,gadzhiyevo,69.2551,33.3362,4.71,100,100,4.36,RU,1683973952
147,kodiak,57.79,-152.4072,6.73,87,100,5.14,US,1683973699
148,qaryat suluq,31.6682,20.2521,31.17,21,26,5.56,LY,1683973954
149,aguachica,8.3084,-73.6166,24.43,87,100,0.61,CO,1683973956
150,goure,13.9835,10.2704,40.56,7,66,6.0,NE,1683973957
151,coquimbo,-29.9533,-71.3436,13.85,94,100,1.03,CL,1683973744
152,at taj,24.2049,23.2857,32.27,12,76,4.5,LY,1683973959
153,pandan,14.0453,124.1694,26.89,81,73,2.76,PH,1683973960
154,olutanga,7.3106,122.8464,29.66,74,35,4.22,PH,1683973961
155,kelso,46.1468,-122.9084,15.13,86,0,0.0,US,1683973826
156,burutu,5.3509,5.5076,31.05,61,100,0.96,NG,1683973964
157,palatka,29.6486,-81.6376,20.03,93,43,0.45,US,1683973965
158,dudinka,69.4058,86.1778,-9.1,87,99,7.96,RU,1683973966
159,larroque,-33.036,-59.0013,10.81,72,35,3.08,AR,1683973967
160,enewetak,11.3474,162.3373,27.75,83,15,8.25,MH,1683973968
161,uturoa,-16.7333,-151.4333,26.62,77,15,4.83,PF,1683973970
162,ilulissat,69.2167,-51.1,-1.99,86,100,1.54,GL,1683973972
163,kone,-21.0595,164.8658,22.45,77,99,2.63,NC,1683973973
164,petropavlovsk-kamchatsky,53.0452,158.6483,5.33,56,20,2.0,RU,1683973974
165,smithers,54.7804,-127.1743,12.18,54,100,1.03,CA,1683973975
166,grosseto,42.8333,11.25,20.0,68,40,2.57,IT,1683973976
167,cabo san lucas,22.8909,-109.9124,20.03,59,1,0.45,MX,1683973732
168,lompoc,34.6391,-120.4579,12.66,97,100,1.54,US,1683973978
169,revda,56.801,59.9303,15.92,27,100,2.06,RU,1683973979
170,santa cruz do capibaribe,-7.9575,-36.2047,24.88,70,54,1.72,BR,1683973981
171,port lincoln,-34.7333,135.8667,15.78,75,14,3.6,AU,1683973982
172,tazovsky,67.4667,78.7,-5.01,82,84,8.05,RU,1683973983
173,mukalla,14.5425,49.1242,31.77,60,76,4.04,YE,1683973912
174,vadso,70.0744,29.7487,13.49,58,0,6.69,NO,1683973985
175,isafjordur,66.0755,-23.124,8.02,57,40,3.09,IS,1683973986
176,talnakh,69.4865,88.3972,-9.33,82,100,4.68,RU,1683973987
177,bikenibeu village,1.3673,173.1241,28.98,79,20,4.12,KI,1683973989
178,katabu,-4.9333,122.5167,23.71,84,21,2.65,ID,1683973990
179,la cruz,23.9167,-106.9,19.65,49,0,1.03,MX,1683973991
180,nishinoomote,30.7333,131.0,19.79,84,100,4.66,JP,1683973992
181,pont rouge,48.8833,-72.0825,5.16,70,99,5.63,CA,1683973994
182,keflavik,64.0049,-22.5624,8.95,76,100,8.23,IS,1683973995
183,myingyan,21.4667,95.3833,25.62,79,100,5.91,MM,1683973996
184,acarau,-2.8856,-40.12,26.12,88,65,4.58,BR,1683973926
185,cristalina,-16.7686,-47.6136,16.5,66,45,1.81,BR,1683973924
186,mount isa,-20.7333,139.5,18.87,52,40,1.54,AU,1683974000
187,taupo,-38.6833,176.0833,6.07,95,41,0.87,NZ,1683974001
188,utrik,11.2278,169.8474,27.27,83,40,7.66,MH,1683974002
189,onega,63.9061,38.1404,9.04,71,97,3.11,RU,1683974003
190,maria aurora,15.7967,121.4737,25.77,97,93,0.59,PH,1683974005
191,charleston,32.7766,-79.9309,21.12,92,0,1.54,US,1683973253
192,reggane,26.7158,0.1714,40.83,6,5,5.9,DZ,1683974007
193,kingston,17.997,-76.7936,26.53,82,20,2.06,JM,1683974008
194,atafu village,-8.5421,-172.5159,28.55,78,18,5.98,TK,1683974009
195,palu,-0.8917,119.8707,25.74,95,53,0.3,ID,1683974011
196,crane,31.3974,-102.3501,17.28,81,98,2.39,US,1683974012
197,vilyuchinsk,52.9306,158.4028,6.15,79,18,3.56,RU,1683974013
198,rio tuba,8.5061,117.4317,28.71,77,84,2.54,PH,1683974014
199,ghat,24.9647,10.1728,36.34,10,21,3.31,LY,1683974015
200,longyearbyen,78.2186,15.6401,1.91,87,75,1.54,SJ,1683974016
201,lhasa,29.65,91.1,12.94,19,98,3.89,CN,1683974017
202,rikaze,29.25,88.8833,14.23,5,0,2.28,CN,1683974019
203,conception bay south,47.4999,-52.9981,6.53,61,2,4.29,CA,1683973803
204,nuuk,64.1835,-51.7216,-0.66,80,100,3.09,GL,1683974021
205,nadym,65.5333,72.5167,1.2,100,99,6.83,RU,1683974022
206,margate,51.3813,1.3862,14.61,80,12,4.92,GB,1683974023
207,zelenoborskiy,66.845,32.3622,8.09,70,94,1.48,RU,1683974024
208,singkil,-7.9855,111.4161,23.52,83,60,3.16,ID,1683974025
209,severo-yeniseyskiy,60.3725,93.0408,-3.46,69,100,4.48,RU,1683974027
210,dawei,14.0833,98.2,28.87,78,77,4.45,MM,1683974028
211,mount gambier,-37.8333,140.7667,9.21,73,0,1.82,AU,1683974029
212,mizdah,31.4451,12.9801,33.1,16,57,10.06,LY,1683974030
213,inhambane,-23.865,35.3833,28.99,61,75,3.09,MZ,1683974031
214,dudestii vechi,46.05,20.4833,17.78,58,95,3.7,RO,1683974032
215,mount pearl,47.5166,-52.7813,7.63,49,20,2.57,CA,1683974033
216,bahia blanca,-38.7196,-62.2724,12.68,69,61,1.34,AR,1683973808
217,altay,47.8667,88.1167,21.77,35,25,6.95,CN,1683973899
218,qamdo,31.1667,97.2333,6.98,14,75,3.34,CN,1683974037
219,haiku-pauwela,20.9219,-156.3051,21.69,73,0,2.57,US,1683974038
220,cidade velha,14.9167,-23.6167,26.26,61,20,8.23,CV,1683974039
221,sayat,38.7839,63.8803,33.93,12,0,4.44,TM,1683974040
222,leava,-14.3,-178.1667,28.19,78,25,6.35,WF,1683974041
223,boguchany,58.3814,97.4531,2.46,40,100,5.17,RU,1683974043
224,torzhok,57.0436,34.9622,21.2,35,82,4.91,RU,1683974044
225,susuman,62.7833,148.1667,-2.39,96,100,2.12,RU,1683974045
226,hammerfest,70.6634,23.6821,9.25,66,75,4.63,NO,1683974046
227,sligo,54.2697,-8.4694,18.67,72,0,4.12,IE,1683974047
228,grevena,40.0845,21.4274,17.56,65,71,3.03,GR,1683974048
229,aripuana,-9.1667,-60.6333,22.54,89,65,0.73,BR,1683974050
230,mar del plata,-38.0023,-57.5575,11.72,96,100,3.58,AR,1683974051
231,tingo maria,-9.2895,-76.0088,19.43,97,99,0.61,PE,1683974052
232,sandnessjoen,66.0217,12.6316,15.29,76,20,3.6,NO,1683974053
233,kashgar,39.4547,75.9797,28.56,12,20,7.0,CN,1683974055
234,tucumcari,35.1717,-103.725,16.08,62,100,4.63,US,1683974056
235,caxito,-8.5785,13.6643,31.96,55,100,1.43,AO,1683974058
236,kyzylorda,44.8528,65.5092,32.01,22,0,6.0,KZ,1683974059
237,franca,-20.5386,-47.4008,13.96,79,0,1.35,BR,1683974060
238,dwarka,22.2394,68.9678,31.33,67,0,7.53,IN,1683974061
239,zyryanskoye,56.8306,86.6258,7.1,26,100,4.3,RU,1683974062
240,peace river,56.2501,-117.286,15.36,62,75,1.03,CA,1683973786
241,tromso,69.6496,18.957,10.77,66,75,10.8,NO,1683974065
242,dakhla,23.6848,-15.958,21.01,68,5,11.32,EH,1683974066
243,urganch,41.55,60.6333,30.97,25,0,5.14,UZ,1683974067
244,rolante,-29.6506,-50.5758,12.8,83,21,1.09,BR,1683974068
245,epernay,49.05,3.95,20.77,66,7,2.96,FR,1683974069
246,belmonte,-15.8631,-38.8828,25.38,80,42,1.63,BR,1683974071
247,visakhapatnam,17.69,83.2093,34.94,52,75,4.12,IN,1683973907
248,timbuktu,16.7735,-3.0074,39.76,21,6,6.74,ML,1683974073
249,ataq,14.5377,46.8319,32.86,21,24,3.3,YE,1683974074
250,carora,10.1755,-70.0827,22.91,82,98,1.89,VE,1683974075
251,remire-montjoly,4.9167,-52.2667,24.02,100,20,1.03,GF,1683974077
252,khanu woralaksaburi,16.0617,99.8606,33.19,49,85,2.06,TH,1683974078
253,papao,-17.75,-149.55,24.82,80,35,7.5,PF,1683974079
254,darhan,49.4867,105.9228,12.63,44,37,1.96,MN,1683974080
255,les cayes,18.2,-73.75,25.39,82,65,2.31,HT,1683974081
256,le port,-20.9373,55.2919,29.0,91,15,0.69,RE,1683974082
257,nadi,-17.8,177.4167,25.0,88,40,0.0,FJ,1683974083
258,newman,37.3138,-121.0208,17.94,56,1,1.44,US,1683974085
259,urangan,-25.3,152.9,19.55,86,14,7.67,AU,1683974087
260,ballina,-28.8667,153.5667,16.12,97,0,3.34,AU,1683974088
261,port saint john's,-31.6229,29.5448,17.75,82,100,3.79,ZA,1683974089
262,pathein,16.7833,94.7333,27.86,76,100,8.28,MM,1683974090
263,fortuna,40.5982,-124.1573,11.63,96,100,0.45,US,1683974091
264,college,64.8569,-147.8028,7.99,61,20,2.57,US,1683974093
265,zabaykal'sk,49.6333,117.3167,17.62,18,30,7.57,RU,1683973995
266,ust-nera,64.5667,143.2,-0.83,94,100,4.1,RU,1683974096
267,summerlin south,36.1027,-115.3811,22.37,21,0,0.89,US,1683974097
268,antsiranana,-12.2787,49.2917,31.42,48,40,5.14,MG,1683974098
269,sabang,5.8933,95.3214,29.97,70,45,5.01,ID,1683974099
270,portage la prairie,49.9728,-98.2926,12.72,86,100,2.68,CA,1683973892
271,udachny,66.4167,112.4,-2.62,88,100,6.68,RU,1683974102
272,zouerate,22.7187,-12.4521,33.36,14,21,4.8,MR,1683974103
273,port isabel,26.0734,-97.2086,21.05,100,100,7.2,US,1683974104
274,wangqing,43.3218,129.7634,11.99,94,100,0.83,CN,1683974107
275,hithadhoo,-0.6,73.0833,28.71,76,74,6.46,MV,1683974108
276,porto novo,6.4965,2.6036,30.9,55,53,3.49,BJ,1683974109
277,tura,25.5198,90.2201,34.2,25,69,0.49,IN,1683974111
278,'ali al gharbi,32.4633,46.6864,43.14,5,32,5.63,IQ,1683974112
279,marrakesh,31.6315,-8.0083,22.04,56,0,1.54,MA,1683974113
280,san fernando de apure,7.8878,-67.4724,26.91,64,81,1.34,VE,1683974108
281,umarkot,25.3616,69.7362,44.72,10,0,9.16,PK,1683974116
282,ulanhot,46.0833,122.0833,17.82,39,0,6.16,CN,1683974117
283,rio gallegos,-51.6226,-69.2181,4.03,65,0,7.72,AR,1683974118
284,gassol,8.5333,10.4667,37.91,32,67,1.5,NG,1683974119
285,yenisarbademli,37.7078,31.3864,17.6,54,51,1.26,TR,1683974120
286,carnarvon,-24.8667,113.6333,22.1,69,2,8.19,AU,1683974122
287,dryden,49.7833,-92.7503,10.16,53,100,4.12,CA,1683974123
288,oromocto,45.8351,-66.4792,12.39,93,100,2.06,CA,1683973842
289,chai badan,15.2,101.1333,33.23,52,94,2.68,TH,1683974125
290,mandal,25.45,74.5667,42.57,7,4,5.94,IN,1683974126
291,la ronge,55.1001,-105.2842,6.14,56,100,1.03,CA,1683974127
292,palikir - national government center,6.9248,158.1611,27.47,94,100,1.54,FM,1683974129
293,alice springs,-23.7,133.8833,14.75,36,0,3.89,AU,1683974130
294,ibiza,38.9088,1.433,17.34,72,75,6.69,ES,1683974117
295,nampula,-15.1165,39.2666,28.97,51,75,1.54,MZ,1683974133
296,kasongo-lunda,-6.4667,16.8167,32.68,42,100,0.84,CD,1683974135
297,broken hill,-31.95,141.4333,16.58,38,27,4.37,AU,1683974136
298,el granada,37.5027,-122.4694,13.57,93,100,4.12,US,1683974137
299,sirte,31.2089,16.5887,31.8,22,60,9.17,LY,1683974138
300,bayan,46.0833,127.4,15.15,67,100,6.33,CN,1683974139
301,kavaratti,10.5669,72.642,30.14,69,98,3.38,IN,1683974140
302,cedeira,43.6797,-8.0209,15.0,78,58,4.69,ES,1683974141
303,georgievka,49.3314,81.5761,20.89,39,82,2.59,KZ,1683974142
304,portland,45.5234,-122.6762,17.57,73,0,1.54,US,1683973603
305,lorengau,-2.0226,147.2712,27.33,81,100,0.33,PG,1683974145
306,shchyolkino,45.4291,35.8223,15.33,70,100,6.37,UA,1683974146
307,bishunpur urf maharajganj,26.2519,83.1186,41.09,8,0,2.96,IN,1683974147
308,pisco,-13.7,-76.2167,21.03,78,100,3.6,PE,1683974077
309,georgetown,5.4112,100.3354,33.97,68,20,3.6,MY,1683973895
310,tumayr,25.7039,45.868,40.76,8,11,5.88,SA,1683974150
311,shendi,16.6915,33.4341,43.71,5,3,6.78,SD,1683974151
312,kapa'a,22.0752,-159.319,21.18,84,100,2.57,US,1683974153
313,novodvinsk,64.4165,40.8122,11.63,49,80,3.89,RU,1683974102
314,mana,5.6592,-53.7767,26.2,86,97,2.73,GF,1683974155
315,bodrum,37.0383,27.4292,23.96,61,2,8.7,TR,1683974156
316,behshahr,36.6923,53.5526,22.97,65,69,3.55,IR,1683974157
317,oltinko'l,40.8011,72.1634,31.5,20,2,2.22,UZ,1683974158
318,bamboo flat,11.7,92.7167,29.72,80,100,9.72,IN,1683974159
319,ariquemes,-9.9133,-63.0408,22.45,84,100,1.79,BR,1683974160
320,mirnyy,62.5353,113.9611,5.23,71,100,2.5,RU,1683974162
321,kapiri mposhi,-13.9652,28.6809,28.1,25,16,2.04,ZM,1683974163
322,namtsy,62.7161,129.6658,6.64,58,4,3.28,RU,1683973999
323,colonia,50.9333,6.95,22.12,65,10,2.84,DE,1683974165
324,tyukhtet,56.5389,89.3011,5.48,28,100,4.81,RU,1683974167
325,thunder bay,48.4001,-89.3168,9.99,71,75,5.14,CA,1683974006
326,spearfish,44.4908,-103.8594,11.82,92,100,7.2,US,1683974169
327,kirakira,-10.4544,161.9205,26.64,85,94,2.34,SB,1683974170
328,kovdor,67.5662,30.4758,11.37,61,70,3.35,RU,1683974171
329,savanna-la-mar,18.219,-78.1332,23.85,86,95,1.66,JM,1683974172
330,kolpashevo,58.3131,82.9089,6.68,26,4,3.08,RU,1683974174
331,lazaro cardenas,17.9583,-102.2,25.59,76,96,1.32,MX,1683974175
332,brandon,27.9378,-82.2859,23.92,84,0,0.89,US,1683974176
333,st. john's,47.5649,-52.7093,7.86,50,20,2.57,CA,1683973891
334,atlantis,-33.5667,18.4834,17.86,52,0,7.19,ZA,1683974178
335,akobo,7.4344,3.9497,31.75,62,40,2.57,NG,1683974180
336,arteche,12.2645,125.4048,26.26,80,95,2.14,PH,1683974181
337,turbat,26.0023,63.044,41.56,11,0,4.84,PK,1683974182
338,khorixas,-20.3667,14.9667,30.1,19,63,1.02,NA,1683974183
339,akjoujt,19.6969,-14.4164,38.64,11,38,7.45,MR,1683974184
340,jinshi,29.6049,111.8701,24.23,71,100,2.99,CN,1683974185
341,flying fish cove,-10.4217,105.6791,26.82,83,75,6.69,CX,1683974187
342,izhevsk,56.85,53.2333,20.07,37,84,0.45,RU,1683973978
343,kayangel,8.0823,134.7173,29.07,72,14,4.57,PW,1683974189
344,kapuskasing,49.4169,-82.4331,2.05,87,20,3.6,CA,1683973891
345,kenora,49.8167,-94.4337,13.54,44,75,4.63,CA,1683974191
346,pionerskiy,54.9508,20.2275,20.91,67,32,5.03,RU,1683974193
347,yeosu,34.7546,127.6599,15.09,90,25,1.92,KR,1683974194
348,el burgo de osma,41.5862,-3.0652,15.43,37,41,1.5,ES,1683974195
349,brooks,50.5834,-111.8851,8.35,89,3,0.51,CA,1683973801
350,lensk,60.7253,114.9278,4.32,96,100,2.73,RU,1683974197
351,rohrdorf,47.7971,12.1701,14.01,74,99,1.92,DE,1683974198
352,vila velha,-20.3297,-40.2925,22.19,81,0,1.54,BR,1683974199
353,puerto baquerizo moreno,-0.9,-89.6,25.41,87,37,4.91,EC,1683974201
354,as sulayyil,20.4607,45.5779,40.14,9,0,3.86,SA,1683974202
355,montepuez,-13.1256,38.9997,28.89,45,25,1.57,MZ,1683974203
356,berezovyy,51.6667,135.7,15.62,57,94,2.6,RU,1683974204
357,aykhal,66.0,111.5,-3.77,92,100,6.03,RU,1683974205
358,carauari,-4.8828,-66.8958,22.16,99,40,0.96,BR,1683974206
359,eyl,7.9803,49.8164,33.57,52,33,6.95,SO,1683974207
360,aldan,58.6031,125.3894,0.21,97,90,1.86,RU,1683974209
361,oriximina,-1.7656,-55.8661,24.12,95,99,0.69,BR,1683974210
362,ocean city,39.2776,-74.5746,19.1,91,100,0.89,US,1683974211
363,saint-pierre,-21.3393,55.4781,28.82,61,75,6.17,RE,1683974212
364,klyuchi,52.2667,79.1667,17.87,22,54,5.0,RU,1683974213
365,dukku,10.8231,10.7717,37.72,17,98,1.56,NG,1683974214
366,queenstown,-31.8976,26.8753,9.56,94,100,3.24,ZA,1683974020
367,hai duong,20.9333,106.3167,22.0,76,100,3.83,VN,1683974217
368,svetlyy,54.675,20.1347,21.03,48,16,4.51,RU,1683974218
369,okha,53.5739,142.9478,9.01,71,57,5.26,RU,1683974219
370,monteagudo,-19.8167,-63.9833,11.73,95,100,1.16,BO,1683974220
371,holualoa,19.6228,-155.9522,21.91,96,75,4.63,US,1683974048
372,dickson,36.077,-87.3878,17.11,99,100,1.54,US,1683974105
373,laguna,38.421,-121.4238,17.47,81,0,2.06,US,1683974223
374,raja,8.4596,25.678,40.98,20,58,1.94,SS,1683974225
375,fort scott,37.8398,-94.7083,18.65,94,91,3.66,US,1683974226
376,magadan,59.5667,150.8,-0.04,87,99,2.01,RU,1683974228
377,sokhumi,43.0033,41.0153,13.84,98,100,3.88,GE,1683974229
378,belyy yar,53.6039,91.3903,10.94,32,0,8.0,RU,1683974230
379,teguise,29.0605,-13.564,21.12,53,20,11.32,ES,1683974232
380,marion,39.7684,-86.1555,20.32,95,100,2.57,US,1683974233
381,salair,54.2312,85.7972,8.71,30,23,4.17,RU,1683974234
382,ostersund,63.1792,14.6357,13.25,35,40,2.06,SE,1683974236
383,gaalkacyo,6.7697,47.4308,36.3,32,17,6.58,SO,1683974238
384,nicoya,10.1483,-85.452,25.5,84,10,0.89,CR,1683974239
385,nizhniy odes,63.6445,54.856,3.02,97,100,3.34,RU,1683974240
386,ayr,55.4627,-4.6339,16.95,87,75,3.09,GB,1683974241
387,huetamo de nunez,18.5833,-100.8833,27.4,65,66,1.2,MX,1683974243
388,brigham city,41.5102,-112.0155,15.02,52,75,6.69,US,1683974241
389,itaituba,-4.2761,-55.9836,23.69,97,64,0.37,BR,1683974245
390,la passe,45.5549,-0.8967,15.13,74,40,3.47,FR,1683974247
391,yilan,24.757,121.753,22.98,99,100,1.26,TW,1683974249
392,prineville,44.2999,-120.8345,14.51,82,0,0.0,US,1683974250
393,berdigestyakh,62.0989,126.6992,4.48,73,60,1.4,RU,1683973996
394,pirdop,42.7,24.1833,15.46,63,66,0.76,BG,1683974252
395,cockburn town,21.4612,-71.1419,26.86,72,100,8.01,TC,1683974253
396,lock haven,41.137,-77.4469,18.27,89,100,1.33,US,1683974153
397,kiunga,-6.1219,141.2906,24.33,99,73,1.48,PG,1683974256
398,alik ghund,30.4896,67.5226,24.38,15,42,10.34,PK,1683974257
399,talara,-4.5772,-81.2719,24.17,82,74,5.83,PE,1683974258
400,slave lake,55.2834,-114.769,9.99,71,100,3.09,CA,1683974259
401,n'zeto,-7.2312,12.8666,29.29,72,100,3.16,AO,1683974260
402,saint-joseph,-21.3667,55.6167,28.21,79,28,3.34,RE,1683974261
403,saint-francois,46.4154,3.9054,13.71,88,100,5.14,FR,1683974263
404,greenville,35.6127,-77.3663,16.02,96,0,0.0,US,1683974194
405,kendari,-3.945,122.4989,25.31,83,66,1.41,ID,1683974265
406,lospalos,-8.5186,127.0025,20.6,75,100,2.55,TL,1683974266
407,danville,36.586,-79.395,19.37,83,20,1.54,US,1683974149
408,lysyye gory,51.5506,44.8414,19.5,49,16,4.53,RU,1683974268
409,suoyarvi,62.0833,32.35,17.91,35,24,1.98,RU,1683973982
410,san antonio de pale,-1.4014,5.6325,28.38,77,100,4.57,GQ,1683974270
411,lycksele,64.5954,18.6735,16.93,31,2,3.09,SE,1683974272
412,boda,4.3189,17.4695,35.15,41,36,0.46,CF,1683974273
413,vegreville,53.5001,-112.0518,12.17,81,28,3.09,CA,1683973983
414,jabor,5.921,169.6434,28.52,79,99,7.18,MH,1683974275
415,suomussalmi,64.8869,28.9078,9.17,85,97,1.25,FI,1683974276
416,chernyshevskiy,63.0128,112.4714,4.47,76,89,2.39,RU,1683974277
417,robertson,36.5167,-86.8667,17.64,99,100,0.0,US,1683974278
418,yinchuan,38.4681,106.2731,27.15,7,37,5.53,CN,1683974279
419,prince george,53.9166,-122.753,9.58,81,0,2.06,CA,1683974281
420,hilo,19.7297,-155.09,21.85,89,100,2.06,US,1683974240
421,veraval,20.9,70.3667,32.36,58,0,7.63,IN,1683974283
422,nova sintra,14.8667,-24.7167,20.08,81,4,7.27,CV,1683974284
423,inongo,-1.95,18.2667,26.03,71,98,0.5,CD,1683974285
424,dunedin,-45.8742,170.5036,10.45,81,99,2.24,NZ,1683974177
425,ceeldheer,3.8488,47.1806,32.61,56,15,10.65,SO,1683974288
426,mezhdurechenskiy,59.6,65.9333,16.31,22,36,3.69,RU,1683974289
427,elmali,36.7358,29.9177,22.6,30,0,2.1,TR,1683974290
428,isangel,-19.55,169.2667,24.99,76,100,8.07,VU,1683974291
429,kloulklubed,7.0419,134.2556,29.35,76,66,5.01,PW,1683974293
430,champerico,14.3,-91.9167,26.98,78,49,2.44,GT,1683974295
431,timimoun,29.2639,0.231,36.21,7,0,4.12,DZ,1683974296
432,ceerigaabo,10.6162,47.368,23.65,50,61,3.41,SO,1683974297
433,harnai,30.1005,67.9374,36.82,9,65,7.16,PK,1683974298
434,lubuklinggau,-3.3,102.8667,27.38,77,71,0.89,ID,1683974300
435,springbok,-29.6643,17.8865,16.62,37,0,8.57,ZA,1683974302
436,boyolangu,-8.1181,111.8935,24.27,82,85,3.91,ID,1683974303
437,goroka,-6.0834,145.3873,17.83,97,97,0.71,PG,1683974304
438,goundi,9.3627,17.366,37.87,30,96,1.67,TD,1683974305
439,datca,36.7378,27.6842,19.18,67,0,9.07,TR,1683974306
440,aguililla,18.7333,-102.7333,20.11,79,91,0.78,MX,1683974308
441,raduzhny,62.0961,77.475,6.15,32,16,3.68,RU,1683974310
442,sinabang,2.4803,96.3801,29.12,76,72,2.84,ID,1683974311
443,pelabuhanratu,-6.9875,106.5514,26.69,88,81,2.82,ID,1683974312
444,bathurst,-33.4166,149.5806,11.01,90,93,1.53,AU,1683974313
445,sierra grande,-41.606,-65.3557,13.27,72,100,0.89,AR,1683974315
446,mahmudabad,27.3,81.1167,41.62,6,0,3.24,IN,1683974316
447,mandera,3.9366,41.867,32.95,43,94,5.92,KE,1683974317
448,abashiri,44.0213,144.2697,14.16,41,0,5.14,JP,1683974318
449,san pedro,14.35,121.0167,30.75,71,20,4.63,PH,1683974319
450,argo,37.6333,22.7333,19.32,53,74,2.45,GR,1683974320
451,kincardine,56.0667,-3.7167,15.99,85,94,1.61,GB,1683974321
452,upington,-28.4478,21.2561,20.21,40,0,4.12,ZA,1683974323
453,xinyuan,37.3,99.0,8.43,26,4,2.99,CN,1683974324
454,ranau,5.9538,116.6641,22.75,97,70,0.69,MY,1683974325
455,ambalangoda,6.2355,80.0538,28.36,83,94,6.33,LK,1683974326
456,natal,-5.795,-35.2094,26.12,94,75,1.54,BR,1683974327
457,khandallah,-41.2467,174.7906,10.22,93,40,2.57,NZ,1683974329
458,yongchuan,29.3514,105.8947,23.35,63,100,1.09,CN,1683974331
459,nar'yan-mar,67.6713,53.087,0.25,87,89,6.18,RU,1683974332
460,salalah,17.0151,54.0924,32.05,62,20,6.69,OM,1683974333
461,chernyshevsk,52.5243,117.0174,9.48,79,100,4.22,RU,1683974334
462,mogocha,53.7333,119.7667,10.58,55,100,3.35,RU,1683974335
463,doue-la-fontaine,47.1937,-0.2749,15.8,73,78,4.36,FR,1683974336
464,shizuishan,39.2333,106.7694,27.06,7,98,7.53,CN,1683974337
465,nova vicosa,-17.8919,-39.3719,23.7,87,100,3.02,BR,1683974339
466,darwin,-12.4611,130.8418,25.99,74,0,2.06,AU,1683974340
467,a coruna,43.3713,-8.396,15.5,76,75,4.47,ES,1683974341
468,wad rawah,15.1603,33.1397,43.43,4,5,7.67,SD,1683974342
469,maridi,4.9158,29.4742,33.45,41,81,1.74,SS,1683974343
470,sassandra,4.95,-6.0833,30.16,69,68,2.25,CI,1683974344
471,kruisfontein,-34.0033,24.7314,12.86,87,100,2.57,ZA,1683974346
472,mianwali,32.5741,71.5264,40.61,9,59,0.25,PK,1683974347
473,gaimersheim,48.807,11.368,11.95,76,75,3.6,DE,1683974348
474,ingeniero jacobacci,-41.3427,-69.5448,8.09,90,100,2.55,AR,1683974349
475,geraldton,-28.7667,114.6,18.23,68,40,4.12,AU,1683974351
476,sao borja,-28.6606,-56.0044,8.86,87,2,2.01,BR,1683974352
477,gloucester point,37.254,-76.4969,20.55,74,75,5.14,US,1683974353
478,katutura,-22.521,17.0557,25.5,25,53,0.89,NA,1683974354
479,pontes e lacerda,-15.2261,-59.3353,18.61,88,89,1.3,BR,1683974357
480,nizhneangarsk,55.7833,109.55,2.21,74,82,1.58,RU,1683974358
481,peniche,39.3558,-9.3811,21.83,50,0,7.32,PT,1683974360
482,bogo,11.0517,124.0055,27.68,74,24,2.93,PH,1683974361
483,ksar el boukhari,35.8889,2.7491,17.63,61,33,7.02,DZ,1683974362
484,payakumbuh,-0.2202,100.6308,24.9,92,89,0.81,ID,1683974365
485,tralee,52.2704,-9.7026,18.14,63,0,1.03,IE,1683974367
486,osakarovka,50.565,72.5692,20.3,54,89,12.9,KZ,1683974370
487,santiago de cao,-7.9589,-79.2392,22.07,88,100,2.06,PE,1683974372
488,nizhnevartovsk,60.9344,76.5531,9.01,25,0,3.13,RU,1683974373
489,santa isabel,-23.3156,-46.2214,14.42,82,92,1.47,BR,1683974374
490,ayancik,41.9447,34.5861,14.37,79,55,6.83,TR,1683974375
491,duba,27.3513,35.6901,29.41,44,0,9.06,SA,1683974377
492,tara,56.8944,74.371,12.62,28,82,4.36,RU,1683974378
493,tilcara,-23.5776,-65.3509,6.54,29,0,3.05,AR,1683974379
494,island harbour,50.724,-1.2758,16.68,77,36,3.13,GB,1683974380
495,luena,-11.7833,19.9167,25.1,36,73,4.12,AO,1683974381
496,tabou,4.423,-7.3528,29.57,73,98,2.64,CI,1683974383
497,muscat,23.6139,58.5922,42.01,40,0,4.6,OM,1683974384
498,lerwick,60.1545,-1.1494,10.0,85,100,5.51,GB,1683974385
499,ghanzi,-21.5667,21.7833,29.48,18,5,6.08,BW,1683974386
500,forster,-32.1667,152.5167,12.43,100,2,1.02,AU,1683974387
501,vizinga,61.0749,50.1031,8.54,91,100,2.16,RU,1683974388
502,nyaunglebin,17.95,96.7333,27.88,81,97,5.62,MM,1683974390
503,hanover,52.3705,9.7332,22.21,51,0,5.66,DE,1683974391
504,polyarnyy,69.1989,33.4478,5.59,96,100,4.49,RU,1683974392
505,dakoro,14.5106,6.765,39.1,8,77,3.08,NE,1683974393
506,port blair,11.6667,92.75,29.66,80,100,9.78,IN,1683974292
507,shanhaiguan,39.9988,119.7564,15.16,75,68,2.67,CN,1683974395
508,vakarai,55.6035,23.8213,22.29,47,28,3.28,LT,1683974396
509,el calafate,-50.3408,-72.2768,3.21,88,100,1.69,AR,1683974398
510,akureyri,65.6835,-18.0878,8.96,49,20,5.14,IS,1683974399
511,naze,28.3667,129.4833,21.51,77,100,5.99,JP,1683974400
512,dipayal,29.2608,80.94,36.31,13,2,2.73,NP,1683974342
513,prince rupert,54.3161,-130.3201,11.05,93,100,10.29,CA,1683974402
514,paradip garh,20.3167,86.6167,29.84,69,82,8.08,IN,1683974403
515,rongelap,11.1635,166.8941,27.55,82,31,7.71,MH,1683974405
516,banfora,10.6333,-4.7667,36.16,35,91,3.01,BF,1683974406
517,zelenogorskiy,55.0333,87.0,8.33,25,15,3.41,RU,1683974407
518,galesong,-5.3166,119.3661,27.14,82,33,4.33,ID,1683974408
519,bhimunipatnam,17.8833,83.4333,34.73,62,89,7.98,IN,1683974410
520,ust'-ilimsk,58.0006,102.6619,4.45,39,100,4.9,RU,1683974275
521,primorsk,46.7348,36.3443,17.04,59,98,5.59,UA,1683974412
522,kayyerkan,69.3786,87.7439,-8.72,85,99,6.88,RU,1683974413
523,kati,12.7441,-8.0726,32.67,29,98,5.14,ML,1683974415
524,songea,-10.6833,35.65,23.64,64,75,1.54,TZ,1683974416
525,punaauia,-17.6333,-149.6,24.8,83,0,1.34,PF,1683974417
526,arawa,-6.2132,155.5367,25.26,94,100,1.79,PG,1683974419
527,leh,34.1667,77.5833,11.22,25,92,2.73,IN,1683974263
528,rio grande,-32.035,-52.0986,11.06,76,69,3.23,BR,1683974422
529,shimanovsk,52.0,127.7,10.34,34,64,1.27,RU,1683974423
530,yichang,30.7144,111.2847,24.78,62,100,1.29,CN,1683974425
531,mil'kovo,55.6078,37.7956,22.22,31,79,5.06,RU,1683974426
532,franklin,39.9667,-83.0166,19.47,98,100,2.06,US,1683974301
533,rio negrinho,-26.2544,-49.5183,11.63,83,97,1.05,BR,1683974429
534,senanga,-16.1167,23.2667,30.91,18,69,2.68,ZM,1683974430
535,ukholovo,53.7929,40.4892,20.77,37,10,4.81,RU,1683974431
536,jalai nur,49.45,117.7,17.36,20,9,7.88,CN,1683974433
537,san sebastian de la gomera,28.0916,-17.1133,24.53,68,20,3.09,ES,1683974434
538,kargil,34.5667,76.1,6.25,50,100,3.44,IN,1683974248
539,martinho campos,-19.3317,-45.2369,17.9,73,18,2.0,BR,1683974436
540,hinton,53.4001,-117.5857,8.95,66,30,2.18,CA,1683974253
541,villa gesell,-37.2639,-56.973,7.81,88,92,2.51,AR,1683974440
542,labe,11.3182,-12.2833,29.96,42,100,1.42,GN,1683974441
543,barentu,15.1139,37.5928,39.45,10,32,5.23,ER,1683974442
544,raychikhinsk,49.7838,129.4121,9.43,77,76,2.91,RU,1683974319
545,masterton,-40.9597,175.6575,6.87,97,12,0.98,NZ,1683974444
546,los llanos de aridane,28.6585,-17.9182,20.07,69,75,7.2,ES,1683974445
547,mandalgovi,45.7625,106.2708,14.5,43,65,4.47,MN,1683974446
548,nikolayevsk-on-amure,53.1406,140.73,13.9,55,54,2.51,RU,1683974448
549,katsuura,35.1333,140.3,17.09,64,99,6.03,JP,1683974449
550,rizhao,35.4275,119.4553,17.91,77,5,1.95,CN,1683974328
551,aleysk,52.4926,82.7822,15.72,25,49,3.88,RU,1683974451
552,brookings,44.3114,-96.7984,15.66,97,0,4.12,US,1683974452
553,walvis bay,-22.9575,14.5053,17.27,57,47,5.05,NA,1683974453
554,pandhana,21.7,76.2167,43.05,7,1,5.13,IN,1683974454
555,kamaishi,39.2667,141.8833,12.58,90,100,2.64,JP,1683974456
556,huatabampo,26.8333,-109.6333,18.96,56,0,0.68,MX,1683974457
557,amos,48.5669,-78.1162,3.66,68,63,5.19,CA,1683974175
558,taltal,-25.4,-70.4833,16.64,78,40,1.31,CL,1683974459
559,diu,20.7141,70.9822,35.02,43,0,10.59,IN,1683974307
560,nieul-sur-mer,46.2058,-1.1645,15.03,77,75,3.09,FR,1683974461
561,hue,16.4667,107.6,26.06,83,75,2.06,VN,1683974462
562,timbiras,-4.2553,-43.9406,25.73,87,76,0.18,BR,1683974464
563,hadibu,12.65,54.0333,31.23,65,14,2.36,YE,1683974466
564,kalmunai,7.4167,81.8167,32.39,63,93,4.37,LK,1683974467
565,mumford,5.2618,-0.759,30.27,68,95,4.29,GH,1683974468
566,hotan,37.0997,79.9269,29.55,4,32,4.38,CN,1683974470
567,el nido,11.1858,119.3956,28.69,79,85,3.09,PH,1683974471
568,guerrero negro,27.9769,-114.0611,14.82,81,69,5.98,MX,1683974472
569,manokwari,-0.8667,134.0833,27.36,81,31,4.25,ID,1683974474
570,sidi ifni,29.3797,-10.173,22.86,71,66,5.49,MA,1683974475
571,yreka,41.7354,-122.6345,16.1,51,0,4.63,US,1683974476
572,kudahuvadhoo,2.6708,72.8944,28.05,77,100,7.09,MV,1683974477
573,panorama,40.5878,23.0315,18.52,61,40,4.12,GR,1683974479
